{
  "title": "在线订购",
  "subTitle":"订购热线：400-888-8888",
  "formTitle" : "立即订购，您的健康您选择",
  "packageList" : [
    {"name":"套餐一" , "price": 1800 },
    {"name":"套餐二(2盒)" , "price": 2800 },
    {"name":"套餐三(4盒)" , "price": 3800 },
    {"name":"套餐四(6盒)" , "price": 4800 }
  ],
  "slideTitle" : "顾客购买历史",
  "buyHistory":[
    { "location":"四川", "name":"张先生", "tel":"155****2313" },
    { "location":"湖南", "name":"李先生", "tel":"133****4772" },
    { "location":"四川", "name":"王先生", "tel":"189****4772" },
    { "location":"四川", "name":"李先生", "tel":"133****4772" },
    { "location":"四川", "name":"李先生", "tel":"159****3263" },
    { "location":"广西", "name":"赵先生", "tel":"131****4772" },
    { "location":"四川", "name":"六先生", "tel":"133****2253" },
    { "location":"湖北", "name":"李先生", "tel":"133****4772" },
    { "location":"四川", "name":"李先生", "tel":"189****4772" },
    { "location":"四川", "name":"李先生", "tel":"133****4772" },
    { "location":"重庆", "name":"崔先生", "tel":"133****4772" },
    { "location":"四川", "name":"李先生", "tel":"133****2274" },
    { "location":"山西", "name":"李先生", "tel":"186****4772" },
    { "location":"四川", "name":"李先生", "tel":"133****8631" },
    { "location":"四川", "name":"胡先生", "tel":"133****4772" },
    { "location":"陕西", "name":"李先生", "tel":"188****4772" },
    { "location":"四川", "name":"李先生", "tel":"133****4772" },
    { "location":"四川", "name":"王先生", "tel":"133****4327" },
    { "location":"北京", "name":"李先生", "tel":"182****4772" },
    { "location":"四川", "name":"李先生", "tel":"133****4772" },
    { "location":"四川", "name":"曾先生", "tel":"151****4772" },
    { "location":"上海", "name":"李先生", "tel":"133****4772" },
    { "location":"四川", "name":"李先生", "tel":"133****4772" },
    { "location":"四川", "name":"李先生", "tel":"133****4772" },
    { "location":"天津", "name":"李先生", "tel":"177****3590" },
    { "location":"四川", "name":"李先生", "tel":"133****4772" },
    { "location":"四川", "name":"李先生", "tel":"133****4772" },
    { "location":"四川", "name":"李先生", "tel":"133****1643" },
    { "location":"福建", "name":"李先生", "tel":"133****4772" },
    { "location":"四川", "name":"李先生", "tel":"133****1848" },
    { "location":"甘肃", "name":"李先生", "tel":"133****4772" },
    { "location":"重庆", "name":"崔先生", "tel":"133****4772" },
    { "location":"四川", "name":"李先生", "tel":"133****2274" },
    { "location":"山西", "name":"李先生", "tel":"186****4772" },
    { "location":"四川", "name":"李先生", "tel":"133****8631" },
    { "location":"四川", "name":"胡先生", "tel":"133****4772" },
    { "location":"陕西", "name":"李先生", "tel":"188****4772" },
    { "location":"四川", "name":"李先生", "tel":"133****4772" },
    { "location":"四川", "name":"王先生", "tel":"133****4327" },
    { "location":"北京", "name":"李先生", "tel":"182****4772" },
    { "location":"四川", "name":"李先生", "tel":"133****4772" },
    { "location":"四川", "name":"曾先生", "tel":"151****4772" },
    { "location":"上海", "name":"李先生", "tel":"133****4772" },
    { "location":"四川", "name":"李先生", "tel":"133****4772" },
    { "location":"四川", "name":"李先生", "tel":"133****4772" },
    { "location":"天津", "name":"李先生", "tel":"177****3590" },
    { "location":"四川", "name":"李先生", "tel":"133****4772" },
    { "location":"四川", "name":"李先生", "tel":"133****4772" },
    { "location":"四川", "name":"李先生", "tel":"133****1643" },
    { "location":"福建", "name":"李先生", "tel":"133****4772" },
    { "location":"四川", "name":"李先生", "tel":"133****1848" },
    { "location":"甘肃", "name":"李先生", "tel":"133****4772" }
  ]

}
